city,latitude,longitude,max temperature,humidity,cloudiness,wind speed,country,date
kirovskiy,45.0917,133.5136,73.78,94,100,3.65,RU,1659476212
tasiilaq,65.6145,-37.6368,48.36,60,18,4.25,GL,1659476214
waipawa,-41.4122,175.5153,54.52,78,71,17.16,NZ,1659476215
thompson,55.7435,-97.8558,57.36,94,100,6.91,CA,1659476217
poum,-20.2333,164.0167,74.97,88,72,15.5,NC,1659476218
new norfolk,-42.7826,147.0587,51.93,77,100,3.0,AU,1659476220
castro,-24.7911,-50.0119,62.44,57,0,3.38,BR,1659476221
dikson,73.5069,80.5464,41.97,90,79,9.04,RU,1659476222
mandera,3.9366,41.867,81.12,47,100,18.01,KE,1659476224
upata,8.0086,-62.3989,74.19,94,99,3.96,VE,1659476225
kavieng,-2.5744,150.7967,82.85,74,39,15.3,PG,1659476227
tuktoyaktuk,69.4541,-133.0374,53.6,87,75,13.8,CA,1659476228
aksha,50.2814,113.2867,64.06,86,90,3.29,RU,1659476230
invermere,50.5167,-116.0354,82.36,24,41,3.22,CA,1659476019
vaini,-21.2,-175.2,78.96,89,40,12.66,TO,1659476234
busselton,-33.65,115.3333,54.59,61,97,30.33,AU,1659476235
chokurdakh,70.6333,147.9167,53.73,64,100,6.51,RU,1659475449
ushuaia,-54.8,-68.3,37.06,87,75,9.22,AR,1659476093
balikpapan,-1.2675,116.8289,74.39,100,20,2.3,ID,1659476243
kapaa,22.0752,-159.319,84.52,65,75,14.97,US,1659476245
albany,42.6001,-73.9662,88.57,50,37,1.01,US,1659476093
hobart,-42.8794,147.3294,52.27,75,75,13.8,AU,1659476225
puerto ayora,-0.7393,-90.3518,82.36,80,53,8.99,EC,1659476110
rikitea,-23.1203,-134.9692,72.36,76,73,21.0,PF,1659475967
viru,-8.4167,-78.75,69.94,67,20,6.93,PE,1659476251
tabou,4.423,-7.3528,75.63,71,100,7.52,CI,1659476253
bluff,-46.6,168.3333,44.8,77,54,33.31,NZ,1659476254
itoman,26.1247,127.6694,82.42,89,20,4.61,JP,1659476255
darab,28.7519,54.5444,86.81,42,28,1.63,IR,1659476257
labuhan,-6.8844,112.2051,75.52,90,36,6.89,ID,1659476134
mahebourg,-20.4081,57.7,68.29,77,40,5.75,MU,1659476260
mar del plata,-38.0023,-57.5575,55.09,96,100,6.91,AR,1659476151
bubaque,11.2833,-15.8333,79.56,82,52,10.8,GW,1659476263
jamestown,42.097,-79.2353,77.02,50,75,8.05,US,1659476265
hermanus,-34.4187,19.2345,48.79,80,12,0.89,ZA,1659476266
vila franca do campo,37.7167,-25.4333,73.81,74,74,2.24,PT,1659475694
asau,46.4333,26.4,61.72,65,1,4.63,RO,1659476269
georgetown,5.4112,100.3354,78.89,93,20,5.01,MY,1659476180
temecula,33.4936,-117.1484,100.96,38,0,10.36,US,1659476042
preeceville,51.95,-102.6677,69.21,74,59,18.14,CA,1659476273
flin flon,54.7682,-101.865,58.84,88,100,12.66,CA,1659476274
airai,-8.9266,125.4092,55.15,55,57,1.95,TL,1659476276
causapscal,48.3542,-67.227,68.92,94,75,8.61,CA,1659476277
carnarvon,-24.8667,113.6333,66.76,64,99,19.95,AU,1659476279
catuday,16.2923,119.8062,79.97,77,100,5.75,PH,1659476283
naze,28.3667,129.4833,79.72,86,62,7.92,JP,1659475774
ancud,-41.8697,-73.8203,46.22,87,98,4.88,CL,1659476009
arraial do cabo,-22.9661,-42.0278,71.56,88,40,8.05,BR,1659476287
quchan,37.106,58.5095,67.78,45,0,2.77,IR,1659476288
alappuzha,9.49,76.3264,75.0,88,100,20.36,IN,1659476289
cape town,-33.9258,18.4232,56.1,90,0,5.75,ZA,1659476291
hofn,64.2539,-15.2082,49.57,72,37,12.77,IS,1659476292
mataura,-46.1927,168.8643,44.47,75,96,9.57,NZ,1659476294
quatre cocos,-20.2078,57.7625,68.11,66,0,10.27,MU,1659476295
omsukchan,62.5333,155.8,53.06,86,100,8.7,RU,1659476297
anadyr,64.75,177.4833,63.1,63,0,6.71,RU,1659475592
rocha,-34.4833,-54.3333,54.18,98,42,5.79,UY,1659475826
benghazi,32.1167,20.0667,80.6,69,0,15.57,LY,1659476190
new richmond,45.123,-92.5366,94.68,55,0,19.57,US,1659476302
barrow,71.2906,-156.7887,48.74,54,85,12.55,US,1659476303
port alfred,-33.5906,26.891,66.24,55,61,7.38,ZA,1659476306
macia,-25.0269,33.0989,62.78,67,100,4.83,MZ,1659476307
borogontsy,62.6683,131.1683,62.22,96,100,2.86,RU,1659476309
bilibino,68.0546,166.4372,57.63,69,100,3.15,RU,1659476310
tongzi,28.7829,105.0877,74.46,96,100,1.39,CN,1659476312
nikolskoye,59.7035,30.7861,58.91,89,73,4.27,RU,1659476313
cidreira,-30.1811,-50.2056,60.46,89,46,9.93,BR,1659476314
kahului,20.8947,-156.47,87.82,60,40,21.85,US,1659476316
sumenep,-7.0167,113.8667,78.35,83,100,9.8,ID,1659476317
guerrero negro,27.9769,-114.0611,80.96,52,100,18.9,MX,1659475579
sao filipe,14.8961,-24.4956,78.21,80,80,5.28,CV,1659476321
limbazi,57.5129,24.7194,62.02,92,73,2.62,LV,1659476323
coquimbo,-29.9533,-71.3436,53.33,76,100,4.61,CL,1659476324
yerbogachen,61.2767,108.0108,62.92,98,99,3.47,RU,1659476326
punta arenas,-53.15,-70.9167,42.91,87,75,5.75,CL,1659476043
victoria,22.2855,114.1577,84.38,82,100,1.01,HK,1659476167
celestun,20.8667,-90.4,85.39,73,19,18.57,MX,1659476331
muzhi,65.3667,64.6667,56.43,68,83,6.46,RU,1659476332
kaitangata,-46.2817,169.8464,51.01,67,44,15.66,NZ,1659476333
kargasok,59.0556,80.8572,48.63,82,3,6.98,RU,1659476335
khatanga,71.9667,102.5,44.01,72,100,4.85,RU,1659476336
shimoda,34.6667,138.95,80.1,86,100,9.64,JP,1659476135
umm lajj,25.0213,37.2685,86.83,51,37,5.68,SA,1659476078
bathsheba,13.2167,-59.5167,84.81,84,40,20.71,BB,1659476340
brzesko,49.9691,20.6061,70.59,83,94,4.23,PL,1659476342
pangkalanbuun,-2.6833,111.6167,72.91,99,97,2.39,ID,1659476344
tura,25.5198,90.2201,74.44,93,100,2.98,IN,1659476346
stockelsdorf,53.8905,10.6258,72.32,59,75,3.44,DE,1659476347
kantang,7.4054,99.5156,75.51,93,98,2.33,TH,1659476349
bac lieu,9.285,105.7244,78.82,85,86,5.61,VN,1659476350
bredasdorp,-34.5322,20.0403,49.73,85,47,2.77,ZA,1659476057
nanortalik,60.1432,-45.2371,47.12,79,33,10.92,GL,1659476353
mount gambier,-37.8333,140.7667,53.51,87,75,19.57,AU,1659476354
alofi,-19.0595,-169.9187,78.69,73,40,14.97,NU,1659476356
saskylakh,71.9167,114.0833,43.56,79,100,8.37,RU,1659476357
villarrubia de los ojos,39.2209,-3.608,82.33,33,89,5.19,ES,1659476234
leningradskiy,69.3833,178.4167,57.45,52,100,6.64,RU,1659476361
fortuna,40.5982,-124.1573,72.93,74,0,16.11,US,1659476363
asfi,32.2994,-9.2372,72.55,85,17,10.29,MA,1659476364
hilo,19.7297,-155.09,82.27,88,75,5.75,US,1659476117
avarua,-21.2078,-159.775,77.05,53,75,13.8,CK,1659476368
inhambane,-23.865,35.3833,63.36,68,29,4.56,MZ,1659476369
ranot,7.7777,100.3213,79.3,81,100,5.97,TH,1659476371
ixtapa,20.7,-105.2,88.23,74,75,5.75,MX,1659476323
nieuwpoort,51.1244,2.7735,69.46,79,0,8.05,BE,1659476373
atuona,-9.8,-139.0333,77.25,77,3,16.31,PF,1659476375
vardo,70.3705,31.1107,55.38,94,20,2.3,NO,1659475716
matay,28.419,30.7792,85.32,39,5,15.46,EG,1659476379
russell,32.3502,-85.1999,88.88,66,0,3.44,US,1659476380
necochea,-38.5473,-58.7368,53.56,81,100,5.41,AR,1659476382
saint-philippe,-21.3585,55.7679,65.79,80,37,6.42,RE,1659476383
qixingtai,30.4135,111.8874,78.71,85,0,2.73,CN,1659476384
hami,42.8,93.45,71.89,66,55,10.27,CN,1659475554
norsup,-16.0667,167.3833,81.59,78,22,8.1,VU,1659476387
itapirapua,-15.8233,-50.6133,80.82,24,8,0.56,BR,1659476389
verkhnyaya inta,65.9811,60.3094,59.04,61,53,6.58,RU,1659476390
la romana,18.4273,-68.9728,86.36,79,75,6.91,DO,1659476391
jinchang,38.4953,102.1739,69.84,78,10,3.44,CN,1659476393
rawlins,41.7911,-107.2387,79.36,36,20,26.46,US,1659476394
kita,13.0349,-9.4895,75.29,85,86,2.71,ML,1659476396
lam luk ka,13.9323,100.7494,82.0,99,40,5.75,TH,1659476397
rawson,-43.3002,-65.1023,46.53,53,0,9.57,AR,1659476399
latung,5.5,120.8833,82.83,76,98,7.61,PH,1659476400
namibe,-15.1961,12.1522,59.14,71,5,3.69,AO,1659476402
saldanha,-33.0117,17.9442,55.45,91,25,8.3,ZA,1659476403
rapid valley,44.0625,-103.1463,95.04,22,0,17.27,US,1659476404
chinsali,-10.5414,32.0816,57.78,74,41,8.08,ZM,1659476406
normandin,48.8333,-72.5321,66.51,55,83,6.91,CA,1659476407
aklavik,68.2191,-135.0107,50.0,81,75,13.8,CA,1659476409
kailua,21.4022,-157.7394,84.15,65,40,12.66,US,1659476319
gat,31.61,34.7642,83.39,65,2,4.07,IL,1659476412
changji,44.0167,87.3167,77.79,38,0,2.24,CN,1659476413
mogocha,53.7333,119.7667,61.77,82,81,1.45,RU,1659476415
ayagoz,47.9714,80.4392,61.9,73,4,7.05,KZ,1659476416
akhnur,32.8667,74.7333,83.17,76,0,4.79,IN,1659476418
taltal,-25.4,-70.4833,56.16,80,21,2.17,CL,1659476419
gunjur,13.2019,-16.7339,80.67,89,40,2.3,GM,1659476420
chekhov,55.1431,37.4711,64.35,78,93,4.76,RU,1659476423
komsomolskiy,40.4272,71.7189,74.12,49,80,2.3,UZ,1659476425
faanui,-16.4833,-151.75,78.46,65,35,24.29,PF,1659476426
hithadhoo,-0.6,73.0833,80.08,77,60,12.46,MV,1659476428
caravelas,-17.7125,-39.2481,69.93,83,12,5.17,BR,1659475855
ribeira grande,38.5167,-28.7,75.52,82,28,13.58,PT,1659476430
singaraja,-8.112,115.0882,76.1,84,89,3.06,ID,1659476432
kodiak,57.79,-152.4072,65.71,48,20,17.27,US,1659476433
prince rupert,54.3161,-130.3201,58.69,92,100,10.36,CA,1659476395
east london,-33.0153,27.9116,65.57,61,79,6.46,ZA,1659476413
rabo de peixe,37.8,-25.5833,72.91,78,75,4.61,PT,1659476437
yellowknife,62.456,-114.3525,68.52,28,20,6.91,CA,1659476282
kudahuvadhoo,2.6708,72.8944,80.92,76,100,18.97,MV,1659476441
jieshi,22.8134,115.8257,80.83,82,100,3.87,CN,1659476442
geraldton,-28.7667,114.6,57.61,77,40,20.71,AU,1659476444
port keats,-14.25,129.55,69.82,83,12,2.89,AU,1659476445
lavrentiya,65.5833,-171.0,57.4,54,5,11.48,RU,1659476447
kirakira,-10.4544,161.9205,82.63,76,100,10.6,SB,1659476448
san patricio,28.017,-97.5169,99.32,46,9,20.07,US,1659476450
bambous virieux,-20.3428,57.7575,68.25,77,40,5.75,MU,1659476451
pisco,-13.7,-76.2167,64.45,72,0,3.44,PE,1659476452
rjukan,59.8789,8.5941,57.04,99,100,4.05,NO,1659476454
bermeo,43.4209,-2.7215,73.6,89,4,6.64,ES,1659476455
ostrovnoy,68.0531,39.5131,53.49,94,6,7.34,RU,1659476459
abbeville,50.1,1.8333,67.5,93,54,3.71,FR,1659476461
norman wells,65.282,-126.8329,75.24,43,75,11.5,CA,1659476462
monticello,45.3055,-93.7941,96.6,54,100,10.36,US,1659476464
roros,62.5747,11.3842,51.64,76,100,17.27,NO,1659476465
talnakh,69.4865,88.3972,43.21,76,1,2.37,RU,1659476467
pevek,69.7008,170.3133,37.71,99,100,5.95,RU,1659476468
severo-yeniseyskiy,60.3725,93.0408,45.93,97,100,2.01,RU,1659476470
marzuq,14.4,46.4667,79.59,53,25,4.52,YE,1659476471
nome,64.5011,-165.4064,69.17,46,0,10.36,US,1659476474
whitianga,-36.8333,175.7,58.26,79,100,6.02,NZ,1659476475
yulara,-25.2406,130.9889,58.75,56,5,8.08,AU,1659476338
bethel,41.3712,-73.414,89.69,54,0,10.36,US,1659476478
dongying,37.4564,118.4856,81.72,78,22,4.05,CN,1659476480
ambon,-3.6954,128.1814,73.54,94,40,8.05,ID,1659476481
trincomalee,8.5711,81.2335,79.36,81,100,25.34,LK,1659476483
cheney,47.4874,-117.5758,90.0,18,20,17.27,US,1659476363
malgrat de mar,41.6466,2.7414,86.11,75,9,9.35,ES,1659476486
byron bay,-28.65,153.6167,54.95,77,89,2.3,AU,1659476487
ushtobe,45.2514,77.9838,73.17,36,94,9.4,KZ,1659476488
kabare,-2.4683,28.8242,59.88,93,58,0.92,CD,1659476490
sur,22.5667,59.5289,89.06,62,3,6.49,OM,1659476491
novyy rogachik,48.6768,44.0608,77.9,35,98,9.73,RU,1659476493
saint-georges,12.0564,-61.7485,83.88,79,20,16.11,GD,1659476494
hohhot,40.8106,111.6522,71.89,68,0,4.47,CN,1659476496
provideniya,64.3833,-173.3,51.91,82,0,8.95,RU,1659476497
aksarka,66.5606,67.7975,55.33,72,37,8.05,RU,1659476498
saint anthony,45.0205,-93.218,96.58,51,0,23.02,US,1659476444
huicheng,23.0385,116.2899,79.41,83,100,2.71,CN,1659476501
la ronge,55.1001,-105.2842,57.45,82,100,19.57,CA,1659476503
tiksi,71.6872,128.8694,40.15,82,100,4.32,RU,1659476504
changli,39.7042,119.1506,80.46,81,77,1.74,CN,1659476507
ugoofaaru,5.6667,73.0,80.92,77,94,21.56,MV,1659476508
mathbaria,22.2876,89.9593,82.65,84,99,4.59,BD,1659476510
kittery,43.0881,-70.7362,92.35,62,75,10.36,US,1659476511
yugorsk,61.3133,63.3319,56.14,66,25,3.83,RU,1659476512
abu samrah,35.3029,37.1841,77.76,62,0,9.17,SY,1659476514
raga,8.4596,25.678,69.26,96,52,3.53,SS,1659476515
qaanaaq,77.484,-69.3632,46.76,58,97,1.36,GL,1659476517
assare,-6.8744,-39.875,74.16,63,67,7.2,BR,1659476518
port elizabeth,-33.918,25.5701,55.31,83,2,4.61,ZA,1659476360
ponta do sol,32.6667,-17.1,71.71,81,8,6.44,PT,1659476521
danielskuil,-28.1887,23.5395,49.21,85,100,20.94,ZA,1659476522
puerto cabezas,14.0351,-83.3888,84.16,89,75,13.8,NI,1659476524
bengkulu,-3.8004,102.2655,74.07,91,52,4.61,ID,1659476525
constitucion,-35.3333,-72.4167,50.95,73,0,11.61,CL,1659476528
butaritari,3.0707,172.7902,82.13,74,98,15.88,KI,1659476529
faya,18.3851,42.4509,62.71,74,97,2.19,SA,1659476531
upernavik,72.7868,-56.1549,45.75,74,91,6.04,GL,1659476532
port shepstone,-30.7414,30.455,63.9,84,53,9.69,ZA,1659476533
axim,4.8699,-2.2405,73.27,79,38,7.38,GH,1659476535
hammerfest,70.6634,23.6821,54.05,87,75,5.75,NO,1659476536
ahipara,-35.1667,173.1667,58.98,80,100,4.41,NZ,1659476540
mehamn,71.0357,27.8492,53.51,100,100,3.44,NO,1659476542
kenai,60.5544,-151.2583,65.03,81,100,6.91,US,1659476543
korla,41.7597,86.1469,73.62,48,1,2.17,CN,1659476544
haines junction,60.7522,-137.5108,53.55,82,100,2.3,CA,1659476546
itarema,-2.9248,-39.9167,78.55,81,40,15.03,BR,1659476547
flinders,-34.5833,150.8552,56.37,71,97,5.99,AU,1659476549
nuuk,64.1835,-51.7216,52.41,76,40,8.05,GL,1659476550
bandarbeyla,9.4942,50.8122,75.61,80,38,29.95,SO,1659476552
saint-paul,-21.0096,55.2707,68.36,79,17,1.83,RE,1659476553
rio grande,-32.035,-52.0986,57.31,91,34,9.01,BR,1659476472
vieste,41.8825,16.175,79.97,65,14,14.12,IT,1659476556
sitka,57.0531,-135.33,55.29,94,100,3.44,US,1659476557
lagoa,39.05,-27.9833,74.28,84,5,15.52,PT,1659476403
juneau,58.3019,-134.4197,57.22,98,100,3.44,US,1659476414
panacan,9.2463,118.4082,79.84,83,93,1.83,PH,1659476561
raudeberg,61.9875,5.1352,58.96,63,100,19.98,NO,1659476562
svetlaya,46.5389,138.3297,64.81,97,100,1.68,RU,1659476564
longyearbyen,78.2186,15.6401,51.64,82,75,5.75,SJ,1659476439
itupiranga,-5.1347,-49.3267,89.92,47,94,2.06,BR,1659476567
puerto madryn,-42.7692,-65.0385,47.23,52,0,9.35,AR,1659476568
ardakan,32.31,54.0175,87.21,21,0,1.48,IR,1659476569
andenes,69.3143,16.1194,49.98,87,75,5.75,NO,1659476571
boyolangu,-8.1181,111.8935,72.54,96,94,1.23,ID,1659476572
alice springs,-23.7,133.8833,69.35,24,100,8.05,AU,1659476574
paris,48.8534,2.3488,79.57,55,0,3.44,FR,1659476426
poronaysk,49.2167,143.1167,57.22,95,100,11.18,RU,1659476576
lebu,-37.6167,-73.65,48.74,77,0,16.22,CL,1659476578
pozo colorado,-23.4923,-58.7972,83.34,30,5,5.68,PY,1659476579
port hedland,-20.3167,118.5667,66.25,88,100,10.36,AU,1659476581
alugan,12.2188,125.4808,80.11,80,98,0.96,PH,1659476582
maraba,-5.3686,-49.1178,89.78,43,0,3.44,BR,1659476584
grindavik,63.8424,-22.4338,49.95,76,75,18.41,IS,1659476585
joshimath,30.5667,79.5667,70.3,93,92,1.36,IN,1659476587
plettenberg bay,-34.0527,23.3716,59.14,54,6,3.38,ZA,1659476588
mana,5.6592,-53.7767,78.31,88,88,9.35,GF,1659476590
aksu,41.1231,80.2644,75.58,46,80,5.44,CN,1659476591
saint george,37.1041,-113.5841,100.44,27,0,11.5,US,1659476524
tautira,-17.7333,-149.15,76.59,75,20,20.27,PF,1659476594
dubbo,-32.25,148.6167,51.93,82,100,5.75,AU,1659476562
westport,41.1415,-73.3579,91.06,54,0,12.66,US,1659476596
tricase,39.9304,18.3553,78.15,65,0,11.27,IT,1659476598
hasaki,35.7333,140.8333,82.8,90,86,7.29,JP,1659476599
acajutla,13.5928,-89.8275,87.21,65,67,5.44,SV,1659476601
fairview,40.8126,-73.999,93.22,45,20,11.5,US,1659476399
darnah,32.767,22.6367,78.76,79,0,15.75,LY,1659476604
urumqi,43.801,87.6005,74.35,38,0,2.24,CN,1659476605
madimba,-10.4,40.3333,69.94,89,0,7.23,TZ,1659476607
san policarpo,12.1791,125.5072,80.38,80,96,0.98,PH,1659476608
esperance,-33.8667,121.9,48.04,65,31,31.52,AU,1659476611
bend,44.0582,-121.3153,90.86,33,99,5.01,US,1659476612
parana,-31.732,-60.5238,63.46,69,99,7.78,AR,1659476570
huilong,31.8111,121.655,82.92,85,0,12.46,CN,1659476615
keskin,39.6731,33.6136,68.88,59,0,8.63,TR,1659476616
beringovskiy,63.05,179.3167,56.73,65,62,3.51,RU,1659476618
hay river,60.8156,-115.7999,67.98,49,20,6.91,CA,1659476619
huarmey,-10.0681,-78.1522,65.28,76,11,11.1,PE,1659476621
coihaique,-45.5752,-72.0662,44.55,65,75,4.61,CL,1659476622
biak,-0.9131,122.8766,74.44,87,90,6.04,ID,1659476623
kununurra,-15.7667,128.7333,57.18,94,52,0.0,AU,1659476625
bilma,18.6853,12.9164,92.25,33,3,7.72,NE,1659476626
sabang,5.8933,95.3214,81.23,72,100,21.94,ID,1659476628
cherskiy,68.75,161.3,47.59,98,100,8.21,RU,1659476629
san cristobal,7.7669,-72.225,77.18,66,72,5.3,VE,1659476632
chitral,35.8462,71.7858,71.83,65,96,1.86,PK,1659476633
vestmannaeyjar,63.4427,-20.2734,51.55,71,26,22.53,IS,1659476635
mossendjo,-2.9506,12.7261,69.75,77,52,4.12,CG,1659476636
kavaratti,10.5669,72.642,77.94,86,100,27.83,IN,1659476638
kajiado,-1.8524,36.7768,58.93,71,95,5.28,KE,1659476639
alamos,27.0167,-108.9333,90.23,51,12,6.8,MX,1659476641
dzaoudzi,-12.7887,45.2699,73.29,88,0,5.75,YT,1659476642
ise,34.4833,136.7,85.32,70,79,6.8,JP,1659476644
sobolevo,54.4299,31.8996,61.93,93,100,6.85,RU,1659476646
noumea,-22.2763,166.4572,73.99,99,64,6.26,NC,1659476595
codrington,-38.2667,141.9667,55.15,69,84,20.94,AU,1659476649
payo,-3.7508,103.6372,71.96,98,100,2.21,ID,1659476651
kirs,59.3388,52.2447,54.27,77,7,3.2,RU,1659476652
rio gallegos,-51.6226,-69.2181,39.25,81,0,0.0,AR,1659476654
robertsport,6.7533,-11.3686,77.41,80,100,9.17,LR,1659476657
cao bang,22.6667,106.25,74.21,96,5,1.39,VN,1659476659
nioaque,-21.1353,-55.83,80.06,29,16,2.66,BR,1659476661
college,64.8569,-147.8028,66.18,68,75,3.44,US,1659476662
broome,42.2506,-75.833,86.18,53,0,14.97,US,1659476665
sarkand,45.41,79.9186,68.31,42,79,5.03,KZ,1659476667
shitanjing,39.2342,106.3439,73.11,62,46,6.73,CN,1659476668
belaya gora,68.5333,146.4167,52.38,86,100,7.74,RU,1659476670
acapulco,16.8634,-99.8901,89.42,66,40,8.05,MX,1659476671
taitung,22.7583,121.1444,77.7,89,100,2.89,TW,1659476673
the valley,18.217,-63.0578,87.66,74,20,13.8,AI,1659476674
tabat,-2.635,115.2274,71.53,99,100,0.63,ID,1659476675
markova,48.6758,24.4138,58.73,78,17,3.96,UA,1659476677
tuatapere,-46.1333,167.6833,47.88,84,84,12.19,NZ,1659476678
constantine,36.365,6.6147,72.81,46,20,1.14,DZ,1659476680
lawrence,38.9717,-95.2353,101.79,41,0,14.97,US,1659476681
katsuura,35.1333,140.3,82.22,87,91,11.01,JP,1659476683
pangnirtung,66.1451,-65.7125,48.2,81,75,11.5,CA,1659476684
pandan,14.0453,124.1694,78.57,87,100,2.91,PH,1659476686
alexandria,31.2156,29.9553,78.76,73,0,11.5,EG,1659476626
kadrina,59.3347,26.145,56.34,97,58,4.99,EE,1659476688
itacarambi,-15.1022,-44.0919,76.93,31,4,3.36,BR,1659476690
maningrida,-12.0667,134.2667,70.5,93,83,6.04,AU,1659476691
xuchang,34.0167,113.8167,79.48,79,1,4.21,CN,1659476693
egvekinot,66.3167,-179.1667,57.11,51,3,8.93,RU,1659476694
shakawe,-18.3667,21.85,62.92,43,8,4.54,BW,1659476695
port hardy,50.6996,-127.4199,64.58,72,75,9.22,CA,1659476444
cabo san lucas,22.8909,-109.9124,93.61,55,20,8.05,MX,1659476698
alamogordo,32.8995,-105.9603,94.35,30,0,4.61,US,1659476700
high level,58.5169,-117.136,68.11,60,75,3.44,CA,1659476701
gualaco,15.05,-86.05,77.68,68,49,5.46,HN,1659476703
mitsamiouli,-11.3847,43.2844,75.58,73,8,4.56,KM,1659476707
tilichiki,60.4667,166.1,55.81,77,77,2.55,RU,1659476709
zhongshu,24.5167,103.7667,60.78,98,36,1.1,CN,1659476711
otane,-39.8833,176.6333,57.0,70,100,3.47,NZ,1659476714
borgo san dalmazzo,44.333,7.4858,73.67,100,92,2.95,IT,1659476717
salalah,17.0151,54.0924,77.09,100,100,4.61,OM,1659476718
narsaq,60.9167,-46.05,57.42,69,60,4.38,GL,1659476720
bonavista,48.6499,-53.1147,67.23,72,97,16.84,CA,1659476721
agirish,61.9247,63.0231,55.62,67,25,4.41,RU,1659476723
maceio,-9.6658,-35.7353,74.64,94,100,3.44,BR,1659476595
erzin,36.9559,36.2,77.31,89,44,1.45,TR,1659476726
manokwari,-0.8667,134.0833,78.76,75,100,2.06,ID,1659476727
torbay,47.6666,-52.7314,77.77,58,20,13.8,CA,1659476730
mirnyy,62.5353,113.9611,62.24,100,89,7.0,RU,1659476735
teguise,29.0605,-13.564,70.02,83,20,19.57,ES,1659476736
lorengau,-2.0226,147.2712,82.42,76,86,14.63,PG,1659476738
kaseda,31.4167,130.3167,80.74,88,51,3.87,JP,1659476739
souillac,-20.5167,57.5167,68.38,77,40,5.75,MU,1659476741
pionerskiy,54.9508,20.2275,49.84,68,99,6.31,RU,1659476742
chitradurga,14.2333,76.4,73.96,82,100,4.21,IN,1659476744
tezu,27.9167,96.1667,75.25,95,99,2.93,IN,1659476745
northam,51.0333,-4.2167,67.39,98,75,15.1,GB,1659476747
shingu,33.7333,135.9833,81.77,75,100,5.1,JP,1659476748
jimma,7.6667,36.8333,57.45,96,96,1.21,ET,1659476750
carauari,-4.8828,-66.8958,81.73,69,98,1.77,BR,1659476751
sompeta,18.9333,84.6,82.04,83,97,6.06,IN,1659476754
shahrud,36.4182,54.9763,72.73,35,0,5.7,IR,1659476755
port blair,11.6667,92.75,78.58,90,100,23.35,IN,1659476758
iqaluit,63.7506,-68.5145,47.93,65,75,8.05,CA,1659476759
arcata,40.8665,-124.0828,73.2,77,100,6.91,US,1659476584
batagay-alyta,67.8006,130.4114,47.12,86,100,4.23,RU,1659476762
nemuro,43.3236,145.575,60.15,94,99,8.95,JP,1659476764
srednekolymsk,67.45,153.6833,60.58,96,100,6.62,RU,1659476766
thai binh,20.45,106.3333,80.73,84,93,2.17,VN,1659476767
zhuhai,22.2769,113.5678,83.98,83,20,3.44,CN,1659476608
silifke,36.3778,33.9344,81.45,82,4,3.49,TR,1659476772
moose factory,51.2585,-80.6094,73.4,53,20,16.11,CA,1659476774
qaqortoq,60.7167,-46.0333,47.84,76,46,7.81,GL,1659476777
luderitz,-26.6481,15.1594,54.12,80,0,3.06,NA,1659476778
ferme-neuve,46.7001,-75.4493,71.67,45,0,6.82,CA,1659476780
vila,42.0304,-8.1588,67.69,75,0,0.96,PT,1659476782
san felipe,10.3399,-68.7425,76.89,86,100,6.26,VE,1659476786
ipora,-16.4419,-51.1178,76.75,24,7,2.19,BR,1659476787
praia da vitoria,38.7333,-27.0667,75.76,83,20,7.54,PT,1659476788
henties bay,-22.116,14.2845,53.08,79,0,5.99,NA,1659476790
katangli,51.7102,143.2326,55.76,93,100,7.81,RU,1659476791
trairi,-3.2778,-39.2689,78.53,80,10,11.95,BR,1659476629
ilulissat,69.2167,-51.1,48.22,93,40,6.91,GL,1659476794
boueni,-12.9025,45.0761,73.38,73,2,3.65,YT,1659476795
binzhou,37.3667,118.0167,80.38,81,21,3.06,CN,1659476797
teluknaga,-6.0989,106.6381,80.19,94,20,4.61,ID,1659476799
klaksvik,62.2266,-6.589,50.92,93,98,15.23,FO,1659476800
hebi,35.8992,114.1925,78.42,73,1,2.39,CN,1659476801
tocopilla,-22.092,-70.1979,60.62,75,21,7.96,CL,1659476514
zeya,53.75,127.2667,65.91,84,58,1.95,RU,1659476804
mitu,1.1983,-70.1733,71.01,99,100,1.12,CO,1659476806
bambanglipuro,-7.95,110.2833,73.96,94,88,3.06,ID,1659476807
spornoye,50.8448,37.2913,64.15,87,100,11.45,RU,1659476809
mbale,1.0821,34.175,61.5,90,61,3.22,UG,1659476810
paamiut,61.994,-49.6678,43.56,91,75,3.4,GL,1659476812
lake havasu city,34.4839,-114.3224,109.22,23,0,8.05,US,1659476766
los llanos de aridane,28.6585,-17.9182,67.75,83,20,18.41,ES,1659476814
dobson,36.3957,-80.7226,91.99,53,75,3.44,US,1659476816
marawi,7.9986,124.2928,67.75,91,64,2.28,PH,1659476817
lodwar,3.1191,35.5973,76.86,58,100,3.02,KE,1659476818
ovalle,-30.5983,-71.2003,61.0,62,0,4.85,CL,1659476820
rockingham,42.9668,-71.0995,91.96,63,95,1.01,US,1659476822
natal,-5.795,-35.2094,77.22,94,75,5.75,BR,1659476636
sinnai,39.3042,9.2036,82.47,43,0,4.61,IT,1659476825
deputatskiy,69.3,139.9,45.9,76,98,3.15,RU,1659476826
aguas formosas,-17.0822,-40.9358,70.16,66,1,4.99,BR,1659476828
ajdabiya,30.7554,20.2263,79.72,61,0,14.79,LY,1659476830
fukue,32.6881,128.8419,81.52,88,28,7.7,JP,1659476831
mangan,27.5167,88.5333,76.51,89,100,1.63,IN,1659476658
boffa,10.1667,-14.0333,74.5,91,98,2.98,GN,1659476835
fereydunshahr,32.941,50.121,68.81,37,74,3.8,IR,1659476837
lakatoro,-16.0999,167.4164,81.63,77,23,7.38,VU,1659476839
bantou,26.2151,117.4893,74.98,96,68,1.95,CN,1659476842
carutapera,-1.195,-46.02,77.65,84,14,8.19,BR,1659476843
fairbanks,64.8378,-147.7164,66.2,68,75,3.44,US,1659476732
zyryanovsk,49.7386,84.2719,56.37,90,38,0.96,KZ,1659476846
cap malheureux,-19.9842,57.6142,66.47,75,0,1.99,MU,1659476847
sao joao da barra,-21.6403,-41.0511,75.29,86,57,12.17,BR,1659476849
sambava,-14.2667,50.1667,66.16,87,27,11.43,MG,1659476850
freeport,40.6576,-73.5832,93.97,60,0,11.5,US,1659476852
muskegon,43.3,-86.1334,85.24,51,40,6.91,US,1659476853
kalengwa,-13.4659,25.0027,58.35,49,14,7.52,ZM,1659476854
kloulklubed,7.0419,134.2556,75.7,70,100,8.61,PW,1659476856
kinablangan,7.6947,126.5503,78.26,76,99,2.37,PH,1659476857
umm kaddadah,13.6017,26.6876,85.19,47,39,11.45,SD,1659476859
bermejo,-32.8833,-68.8,62.51,45,0,4.61,AR,1659476860
teya,60.3778,92.6267,49.17,98,100,1.86,RU,1659476862
sistranda,63.7256,8.834,58.96,92,100,6.15,NO,1659476863
bridgetown,13.1,-59.6167,84.69,70,40,20.71,BB,1659476827
santa maria,-29.6842,-53.8069,56.5,100,75,11.5,BR,1659476866
goderich,43.7501,-81.7165,69.91,68,8,9.22,CA,1659476867
augusto correa,-1.0217,-46.635,76.46,88,12,5.75,BR,1659476869
ramanuj ganj,23.8,83.7,77.7,79,100,1.99,IN,1659476870
zhanakorgan,43.9098,67.2495,76.32,40,39,6.91,KZ,1659476872
gamba,-2.65,10.0,69.91,95,54,6.33,GA,1659476873
lompoc,34.6391,-120.4579,80.85,66,0,14.97,US,1659476876
kondapalle,16.6167,80.5333,76.05,83,72,2.46,IN,1659476877
matara,5.9485,80.5353,76.55,87,100,19.53,LK,1659476879
salitrillo,19.4333,-99.85,61.39,79,83,1.07,MX,1659476880
caconda,-13.7333,15.0667,54.64,51,99,4.43,AO,1659476882
ashtian,34.5217,50.0019,74.07,31,16,8.19,IR,1659476886
yala,6.3333,101.25,73.47,99,100,2.8,TH,1659476887
gejiu,23.306,103.1635,56.79,95,55,1.74,CN,1659476890
vostok,46.4856,135.8833,71.78,71,69,2.51,RU,1659476891
ingham,42.6,-84.3833,85.17,53,0,0.0,US,1659476893
warrington,53.3925,-2.5802,70.32,81,75,13.8,GB,1659476897
angoche,-16.2325,39.9086,72.09,81,23,7.85,MZ,1659476899
turukhansk,65.8167,87.9833,48.4,74,78,4.03,RU,1659476901
oda,35.1833,132.5,81.37,85,1,7.16,JP,1659476903
kuito,-12.3833,16.9333,59.02,43,26,5.7,AO,1659476904
cayenne,4.9333,-52.3333,84.09,1,78,4.0,GF,1659476737
basco,20.4487,121.9702,81.19,81,100,18.92,PH,1659476907
hurricane,37.1753,-113.2899,98.51,30,64,12.01,US,1659476908
atar,20.5169,-13.0499,94.57,31,8,10.8,MR,1659476910
kyshtovka,56.555,76.6271,49.51,82,0,5.84,RU,1659476912
conceicao do araguaia,-8.2578,-49.2647,84.34,28,85,3.13,BR,1659476913
zelenets,61.8849,50.7489,59.25,69,95,3.53,RU,1659476914
lata,40.1629,-8.3327,62.58,93,0,1.97,PT,1659476916
aleksandrov gay,50.147,48.5704,74.34,41,29,8.1,RU,1659476919
coahuayana,18.7333,-103.6833,91.29,57,67,6.24,MX,1659476920
loukhi,66.0764,33.0381,55.45,97,100,3.22,RU,1659476922
montecristi,-1.05,-80.6667,76.82,65,40,13.8,EC,1659476923
novyy urengoy,66.0833,76.6333,52.84,71,51,5.93,RU,1659476924
aswan,24.0934,32.907,92.5,18,0,9.22,EG,1659476926
husavik,66.0449,-17.3389,45.28,98,100,16.78,IS,1659476927
honiara,-9.4333,159.95,83.68,69,25,8.03,SB,1659476929
morondava,-20.2833,44.2833,69.91,66,0,11.18,MG,1659476930
pelym,61.0108,61.9978,55.36,71,37,2.15,RU,1659476932
tromso,69.6496,18.957,51.82,82,75,8.05,NO,1659476934
marabba,12.35,32.1833,73.81,87,100,7.9,SD,1659476936
nynashamn,58.9034,17.9479,63.1,78,99,10.16,SE,1659476937
villafranca de los barros,38.5614,-6.3381,84.24,23,0,14.36,ES,1659476939
severo-kurilsk,50.6789,156.125,55.2,79,22,7.72,RU,1659476940
mount darwin,-16.7725,31.5838,56.59,75,22,5.14,ZW,1659476942
tecoanapa,16.5167,-98.75,86.86,64,4,8.59,MX,1659476945
ouadda,8.0777,22.4007,68.13,96,100,1.79,CF,1659476946
clyde river,70.4692,-68.5914,41.23,93,100,9.22,CA,1659476948
dingle,10.9995,122.6711,75.9,90,97,5.12,PH,1659476950
nizwa,22.9333,57.5333,89.31,54,30,2.42,OM,1659476952
cerro punta,8.85,-82.5667,55.81,99,100,0.72,PA,1659476954
waddan,29.1614,16.139,82.15,46,0,16.42,LY,1659476955
meulaboh,4.1363,96.1285,73.99,88,100,3.78,ID,1659476957
pulandian,39.3953,121.9669,77.27,88,0,0.85,CN,1659476959
pacasmayo,-7.4006,-79.5714,65.5,78,29,12.82,PE,1659476960
beipiao,41.7919,120.7792,74.12,92,94,3.42,CN,1659476962
venice,27.0998,-82.4543,92.07,73,0,10.36,US,1659476944
houma,29.5958,-90.7195,86.0,77,0,4.0,US,1659476695
margate,51.3813,1.3862,66.69,83,31,4.0,GB,1659476966
sheltozero,61.3667,35.3667,58.69,95,39,10.0,RU,1659476967
bosaso,11.2842,49.1816,91.76,38,1,16.73,SO,1659476969
alta floresta,-9.8756,-56.0861,83.57,27,99,3.89,BR,1659476970
harper,4.375,-7.7169,75.49,72,100,7.47,LR,1659476972
kuryk,43.2,51.65,84.4,34,1,10.96,KZ,1659476973
shubarkuduk,49.1447,56.4872,70.83,54,2,6.06,KZ,1659476975
careiro da varzea,-3.2003,-59.8119,88.43,69,94,4.18,BR,1659476979
saint-joseph,-21.3667,55.6167,64.78,79,19,6.58,RE,1659476980
lugovoy,42.9472,72.7644,71.19,52,99,3.98,KZ,1659476982
tessalit,20.1986,1.0114,81.32,51,100,23.55,ML,1659476983
clarence town,-32.5833,151.7833,52.56,69,82,2.71,AU,1659476985
opichen,20.55,-89.85,95.95,26,63,7.47,MX,1659476987
buala,-8.145,159.5921,82.47,75,27,9.69,SB,1659476989
fatehpur,25.9333,80.8,82.6,75,100,9.51,IN,1659476896
anchorage,61.2181,-149.9003,61.86,83,75,5.75,US,1659476971
dunedin,-45.8742,170.5036,55.8,41,5,4.0,NZ,1659476871
nohar,29.1833,74.7667,91.51,59,80,1.74,IN,1659476994
parakou,9.3372,2.6303,70.57,97,100,5.66,BJ,1659476995
wajima,37.4,136.9,80.92,83,100,15.97,JP,1659476997
russkaya polyana,49.417,31.9201,62.55,97,96,10.58,UA,1659476998
gbarnga,6.9956,-9.4722,70.12,98,98,3.65,LR,1659477000
jalu,29.0331,21.5482,81.61,52,0,16.93,LY,1659477001
cochrane,51.1834,-114.4687,75.52,42,0,6.91,CA,1659476707
vila velha,-20.3297,-40.2925,75.15,87,20,11.5,BR,1659476890
shache,38.4167,77.2406,81.72,36,93,9.13,CN,1659477007
drayton valley,53.2168,-114.9854,64.81,69,45,11.3,CA,1659477009
vanimo,-2.6741,141.3028,79.63,82,92,7.16,PG,1659477011
neenah,44.1858,-88.4626,86.25,63,35,11.12,US,1659476760
eha amufu,6.6592,7.7596,72.07,93,83,4.52,NG,1659477014
krutinka,56.0055,71.5113,51.62,84,23,7.29,RU,1659477015
kinsale,51.7075,-8.5306,60.24,88,40,9.22,IE,1659477017
lavumisa,-27.31,31.892,57.47,95,0,4.23,SZ,1659477019
steinbach,50.1667,8.5667,75.38,53,0,2.3,DE,1659477020
chuy,-33.6971,-53.4616,55.53,95,42,7.43,UY,1659477022
hambantota,6.1241,81.1185,77.34,94,75,10.36,LK,1659477024
pouembout,-21.1333,164.9,74.95,84,99,5.23,NC,1659476983
uthal,25.8072,66.6219,82.45,86,78,5.12,PK,1659477028
bayan,46.0833,127.4,75.02,90,54,1.57,CN,1659476893
jambi,-1.6,103.6167,73.26,99,100,2.19,ID,1659476744
la asuncion,11.0333,-63.8628,87.53,70,26,19.57,VE,1659477032
lewistown,40.5992,-77.5714,90.81,66,0,10.36,US,1659477033
washougal,45.5826,-122.3534,90.43,49,0,5.99,US,1659477034
svobodnyy,51.4,128.1333,70.34,66,0,4.38,RU,1659477036
mackay,-21.15,149.2,62.69,92,11,8.99,AU,1659477037
brae,60.3964,-1.353,56.73,92,99,22.48,GB,1659477035
tokur,53.1333,132.9,56.41,98,100,2.55,RU,1659477040
malatya,38.5,38.0,66.25,37,0,6.91,TR,1659477041
sungaipenuh,-2.0833,101.3833,63.52,98,100,0.98,ID,1659477043
makakilo city,21.3469,-158.0858,82.69,57,75,18.41,US,1659477044
port macquarie,-31.4333,152.9167,47.89,70,100,6.2,AU,1659477046
stokmarknes,68.5646,14.9108,49.98,87,100,3.44,NO,1659477047
palmer,42.1584,-72.3287,88.5,67,75,20.71,US,1659477050
praia,14.9215,-23.5087,79.34,78,20,4.61,CV,1659477013
veraval,20.9,70.3667,81.9,81,100,10.69,IN,1659477053
boende,-0.2167,20.8667,75.99,75,57,2.1,CD,1659476815
lodja,-3.4833,23.4333,74.32,74,98,1.63,CD,1659477055
birao,10.2849,22.7882,70.63,97,44,5.1,CF,1659477057
newport,51.5877,-2.9984,70.02,91,64,14.79,GB,1659477021
neiafu,-18.65,-173.9833,77.68,88,40,9.22,TO,1659477059
ca mau,9.1769,105.15,77.2,90,98,3.15,VN,1659477061
seoul,37.5683,126.9778,78.4,92,100,6.91,KR,1659477047
ginir,7.1333,40.7,58.42,83,99,8.59,ET,1659477065
port lincoln,-34.7333,135.8667,55.33,74,0,18.21,AU,1659477066
neustadt,49.7117,12.0872,68.7,70,0,0.0,DE,1659477069
falmouth,50.1544,-5.0711,67.1,94,100,8.05,GB,1659476860
smolenka,52.1352,113.4974,60.87,100,20,0.0,RU,1659477072
chapada dos guimaraes,-15.4606,-55.7497,87.46,22,52,4.94,BR,1659476972
bijie,27.3125,105.2942,63.45,97,80,4.12,CN,1659477074
amuntai,-2.4177,115.2494,71.4,98,100,0.63,ID,1659477076
atherton,53.5237,-2.4935,69.35,83,96,4.0,GB,1659477077
athabasca,54.7169,-113.2854,59.47,66,100,5.95,CA,1659477079
iquitos,-3.7481,-73.2472,84.24,74,40,3.44,PE,1659477080
ust-omchug,61.15,149.6333,57.33,87,100,6.02,RU,1659477081
meadow lake,34.8014,-106.5436,96.46,26,32,12.82,US,1659477083
kemin,42.7846,75.6892,64.13,62,93,1.43,KG,1659477086
carquefou,47.2982,-1.4902,75.27,60,0,4.61,FR,1659477087
